{
  "CM23 3QE": {
    "status": "OK",
    "lat": 51.8597051,
    "lng": 0.1534921,
    "place_id": "ChIJmaLTMC6F2EcRd4Kl5a-vERw",
    "formatted_address": "Patricia Gardens, Bishop's Stortford CM23 3QE, UK"
  },
  "CM7 3DX": {
    "status": "OK",
    "lat": 51.87958829999999,
    "lng": 0.5716011999999999,
    "place_id": "ChIJV7YZTnbw2EcRj0K_qZDGxKs",
    "formatted_address": "Hay Ln N, Braintree CM7 3DX, UK"
  },
  "CM23 4HD": {
    "status": "OK",
    "lat": 51.8599776,
    "lng": 0.1494096,
    "place_id": "ChIJM-XU2S6F2EcRnVgXNq74P_4",
    "formatted_address": "The Meadows, Bishop's Stortford CM23 4HD, UK"
  },
  "EN9 1PP": {
    "status": "OK",
    "lat": 51.690116,
    "lng": 0.0045951,
    "place_id": "ChIJLaEna_yf2EcRvEzore28-9Y",
    "formatted_address": "S Weald Dr, Waltham Abbey EN9 1PP, UK"
  },
  "EN9 3HY": {
    "status": "OK",
    "lat": 51.6865832,
    "lng": 0.0306973,
    "place_id": "ChIJ9961c4mf2EcRTQk8I04POtQ",
    "formatted_address": "Theydon Ct, Waltham Abbey EN9 3HY, UK"
  },
  "CM23 5DU": {
    "status": "OK",
    "lat": 51.8804116,
    "lng": 0.1771047,
    "place_id": "ChIJh2vnE2-F2EcRNv2AcZkmvXE",
    "formatted_address": "Northolt Ave, Bishop's Stortford CM23 5DU, UK"
  },
  "CM23 5DG": {
    "status": "OK",
    "lat": 51.8786628,
    "lng": 0.1787927,
    "place_id": "ChIJMacw_mWF2EcRVFpK1hQgarI",
    "formatted_address": "Heath Row, Bishop's Stortford CM23 5DG, UK"
  },
  "CM22 6UF": {
    "status": "OK",
    "lat": 51.910554,
    "lng": 0.2256565,
    "place_id": "ChIJfzd23xmP2EcRk5_PRaGv7YU",
    "formatted_address": "Bishop's Stortford CM22 6UF, UK"
  },
  "IG10 1QP": {
    "status": "OK",
    "lat": 51.65212589999999,
    "lng": 0.0610332,
    "place_id": "ChIJf_9czLqh2EcRa3ilPEZmSco",
    "formatted_address": "Church Hill, Loughton IG10 1QP, UK"
  },
  "CM6 2LJ": {
    "status": "OK",
    "lat": 51.9532676,
    "lng": 0.3487711,
    "place_id": "ChIJz4OYxm2L2EcRNh8DbuoUOII",
    "formatted_address": "Magdalen Grn, Thaxted, Dunmow CM6 2LJ, UK"
  },
  "CO9 4DW": {
    "status": "OK",
    "lat": 52.0139614,
    "lng": 0.5620898999999999,
    "place_id": "ChIJ78-MXuT32EcRuznQItKew4Q",
    "formatted_address": "Halstead CO9 4DW, UK"
  },
  "CM77 7WR": {
    "status": "OK",
    "lat": 51.8570087,
    "lng": 0.5288056,
    "place_id": "ChIJ6Zrkeizw2EcRN6YZ4_dfSPg",
    "formatted_address": "Pintail Cres, Great Notley, Braintree CM77 7WR, UK"
  },
  "CM7 3LE": {
    "status": "OK",
    "lat": 51.8795622,
    "lng": 0.582643,
    "place_id": "ChIJvdeOrJv62EcRBccoYsluq7c",
    "formatted_address": "Kitchen Fld, Braintree CM7 3LE, UK"
  },
  "CO6 1NT": {
    "status": "OK",
    "lat": 51.8696028,
    "lng": 0.6725789,
    "place_id": "ChIJoa72RqD82EcR6ncVQUbkKiQ",
    "formatted_address": "West St, Coggeshall, Colchester CO6 1NT, UK"
  },
  "CM7 9LJ": {
    "status": "OK",
    "lat": 51.8851773,
    "lng": 0.5705833,
    "place_id": "ChIJ3X0_qnnw2EcRRhCZI2XN6gI",
    "formatted_address": "Edinburgh Gardens, Braintree CM7 9LJ, UK"
  },
  "CM8 1DF": {
    "status": "OK",
    "lat": 51.7940864,
    "lng": 0.6363477,
    "place_id": "ChIJj6GjQUTk2EcRU02CX6gGyBk",
    "formatted_address": "Malyon Rd, Witham CM8 1DF, UK"
  },
  "CM7 3FA": {
    "status": "OK",
    "lat": 51.8734158,
    "lng": 0.5799660999999999,
    "place_id": "ChIJ504Xypj62EcRIpOKoJLA_eU",
    "formatted_address": "Templar Rd, Braintree CM7 3FA, UK"
  },
  "CM6 1YD": {
    "status": "OK",
    "lat": 51.8724749,
    "lng": 0.2873189,
    "place_id": "ChIJgdEDhwqO2EcRcg6J4XIalC4",
    "formatted_address": "Dunmow CM6 1YD, UK"
  },
  "CM8 2YF": {
    "status": "OK",
    "lat": 51.8105759,
    "lng": 0.6280973,
    "place_id": "ChIJ6Y0v5Pjk2EcRE1f4bPYGv0s",
    "formatted_address": "Orchid Ave, Witham CM8 2YF, UK"
  },
  "CM22 7EB": {
    "status": "OK",
    "lat": 51.8129502,
    "lng": 0.2089177,
    "place_id": "ChIJW3_zcGGQ2EcR5wlo0WDID4Q",
    "formatted_address": "Hatfield Heath, Bishop's Stortford CM22 7EB, UK"
  },
  "CM6 3EQ": {
    "status": "OK",
    "lat": 51.8619599,
    "lng": 0.4521313,
    "place_id": "ChIJmSiRoHLy2EcRqP-zWge8arE",
    "formatted_address": "Oxney Villas, Felsted, Dunmow CM6 3EQ, UK"
  },
  "CM7 1GN": {
    "status": "OK",
    "lat": 51.8743888,
    "lng": 0.5530997,
    "place_id": "ChIJ1WRMBWvw2EcRMlzw_iRuQAU",
    "formatted_address": "Braintree CM7 1GN, UK"
  },
  "CB10 2LX": {
    "status": "OK",
    "lat": 52.0281661,
    "lng": 0.3170073,
    "place_id": "ChIJNYWQcdxh2EcR03Rk7ml3QjI",
    "formatted_address": "Ashdon, Saffron Walden CB10 2LX, UK"
  },
  "CM23 4DJ": {
    "status": "OK",
    "lat": 51.854477,
    "lng": 0.1551593,
    "place_id": "ChIJoYHOhTKF2EcRewH7-KEbK2k",
    "formatted_address": "Pynchbek, Bishop's Stortford CM23 4DJ, UK"
  },
  "CM6 1FF": {
    "status": "OK",
    "lat": 51.86957959999999,
    "lng": 0.2845281,
    "place_id": "ChIJl4PSaQqO2EcRMFFhswy2kI4",
    "formatted_address": "Honey Rd, Little Canfield, Dunmow CM6 1FF, UK"
  },
  "CM22 7DH": {
    "status": "OK",
    "lat": 51.8138999,
    "lng": 0.2086305,
    "place_id": "ChIJ5wezQmGQ2EcRzLZ5NlPhJG0",
    "formatted_address": "W Hayes, Hatfield Heath, Bishop's Stortford CM22 7DH, UK"
  },
  "EN9 3DS": {
    "status": "OK",
    "lat": 51.6855341,
    "lng": 0.0221871,
    "place_id": "ChIJEye-IvWf2EcR6cxIOB_Knj4",
    "formatted_address": "Caneland Ct, Waltham Abbey EN9 3DS, UK"
  },
  "CB10 2AG": {
    "status": "OK",
    "lat": 52.0241041,
    "lng": 0.2496132,
    "place_id": "ChIJp3NJrXli2EcRqbN9SjEeo6w",
    "formatted_address": "Hollyhock Rd, Saffron Walden CB10 2AG, UK"
  },
  "CM21 9JE": {
    "status": "OK",
    "lat": 51.81189,
    "lng": 0.1580304,
    "place_id": "ChIJgw6KVPaa2EcR33r9DeClJ6E",
    "formatted_address": "Sawbridgeworth CM21 9JE, UK"
  },
  "CM23 2QU": {
    "status": "OK",
    "lat": 51.8722439,
    "lng": 0.1562557,
    "place_id": "ChIJ_a54aj2F2EcRnq6cP73qFEk",
    "formatted_address": "Hadham Rd, Bishop's Stortford CM23 2QU, UK"
  },
  "CM16 4AE": {
    "status": "OK",
    "lat": 51.6965654,
    "lng": 0.1082438,
    "place_id": "ChIJ308F9rqY2EcRYJUdsLxFY0s",
    "formatted_address": "High St, Epping CM16 4AE, UK"
  },
  "CM7 9RU": {
    "status": "OK",
    "lat": 51.8915321,
    "lng": 0.5612516,
    "place_id": "ChIJ7bzzxWLw2EcRPT6IP_rjZGM",
    "formatted_address": "Broad Rd, Braintree CM7 9RU, UK"
  },
  "CM23 5NP": {
    "status": "OK",
    "lat": 51.8663404,
    "lng": 0.170673,
    "place_id": "ChIJa0Yc7EaF2EcRXOeYpDBfdFs",
    "formatted_address": "Pine Grove, Bishop's Stortford CM23 5NP, UK"
  },
  "SG9 0JH": {
    "status": "OK",
    "lat": 51.9328502,
    "lng": 0.08247,
    "place_id": "ChIJl6KdR-OD2EcRRq9OSv-ekoY",
    "formatted_address": "Whitebarns Ln, Furneux Pelham, Buntingford SG9 0JH, UK"
  },
  "SG9 9XB": {
    "status": "OK",
    "lat": 51.9456905,
    "lng": -0.0105544,
    "place_id": "ChIJ_f__GQUqdkgR2dEPrs8ELSE",
    "formatted_address": "Buntingford SG9 9XB, UK"
  },
  "CM6 1QY": {
    "status": "OK",
    "lat": 51.8667111,
    "lng": 0.3650447,
    "place_id": "ChIJr_w-FkSN2EcRRpuB2bR8r8U",
    "formatted_address": "Ash Grove, Dunmow CM6 1QY, UK"
  },
  "CM6 1FD": {
    "status": "OK",
    "lat": 51.8706778,
    "lng": 0.288172,
    "place_id": "ChIJK-CHS-CN2EcRBwa2apaX_QM",
    "formatted_address": "Dryvers Cl, Little Canfield, Dunmow CM6 1FD, UK"
  },
  "SG11 2BG": {
    "status": "OK",
    "lat": 51.8836822,
    "lng": 0.09201010000000001,
    "place_id": "ChIJJcM0KmOD2EcRfxlf4fGzfpk",
    "formatted_address": "Ware SG11 2BG, UK"
  },
  "CM77 6AD": {
    "status": "OK",
    "lat": 51.8765765,
    "lng": 0.5070051999999999,
    "place_id": "ChIJr6hNsL7x2EcR9nHIjIukr9w",
    "formatted_address": "Old Challis Rise, Rayne, Braintree CM77 6AD, UK"
  },
  "CM6 1TZ": {
    "status": "OK",
    "lat": 51.8774615,
    "lng": 0.3522855,
    "place_id": "ChIJq9meYxGN2EcR_FmR2qJDKfc",
    "formatted_address": "Cherry Cres, Great Dunmow, Dunmow CM6 1TZ, UK"
  },
  "CM7 1GP": {
    "status": "OK",
    "lat": 51.8667597,
    "lng": 0.5660464,
    "place_id": "ChIJXTDFqA7w2EcRcHWSc8PfsoU",
    "formatted_address": "Braintree CM7 1GP, UK"
  },
  "CM7 1DX": {
    "status": "OK",
    "lat": 51.87003379999999,
    "lng": 0.5569352,
    "place_id": "ChIJFc_ochPw2EcRB3DPpqCG9sA",
    "formatted_address": "Nineacres, Braintree CM7 1DX, UK"
  },
  "CO9 1FS": {
    "status": "OK",
    "lat": 51.9366486,
    "lng": 0.6241565,
    "place_id": "ChIJzVjshn_52EcRB1p7foDKjog",
    "formatted_address": "Halstead CO9 1FS, UK"
  },
  "CM7 5AQ": {
    "status": "OK",
    "lat": 51.8986792,
    "lng": 0.5197198,
    "place_id": "ChIJWwwSqgbx2EcRX2nclP9R0kc",
    "formatted_address": "Kynaston Rd, Panfield, Braintree CM7 5AQ, UK"
  },
  "SG9 9SX": {
    "status": "OK",
    "lat": 51.9523711,
    "lng": -0.0254809,
    "place_id": "ChIJHYnJ4z0qdkgRVjKKc7VWoU0",
    "formatted_address": "Buntingford SG9 9SX, UK"
  },
  "CM6 1BX": {
    "status": "OK",
    "lat": 51.875847,
    "lng": 0.3641875,
    "place_id": "ChIJ9XsLKTmN2EcRHVt4hZo7e-8",
    "formatted_address": "Counting House Ln, Dunmow CM6 1BX, UK"
  },
  "CM7 3RA": {
    "status": "OK",
    "lat": 51.8801236,
    "lng": 0.5754969999999999,
    "place_id": "ChIJHb9MdJ362EcRZbZ_y3sLN34",
    "formatted_address": "Bartram Ave, Braintree CM7 3RA, UK"
  },
  "CM77 8DU": {
    "status": "OK",
    "lat": 51.8502563,
    "lng": 0.5607363,
    "place_id": "ChIJE9nzseLv2EcRMfYb-MW9Gyo",
    "formatted_address": "Gainsborough Rd, Braintree CM77 8DU, UK"
  },
  "CM7 4TB": {
    "status": "OK",
    "lat": 51.95236130000001,
    "lng": 0.4367009,
    "place_id": "ChIJIyBsUWH02EcRQSmEMJQguHI",
    "formatted_address": "Bridge End, Great Bardfield, Braintree CM7 4TB, UK"
  },
  "CM8 1SA": {
    "status": "OK",
    "lat": 51.8336941,
    "lng": 0.5913828,
    "place_id": "ChIJUap5XUHl2EcREkJO5U56z9o",
    "formatted_address": "Vicarage Ave, White Notley, Witham CM8 1SA, UK"
  },
  "CM7 3DP": {
    "status": "OK",
    "lat": 51.8801966,
    "lng": 0.5733942,
    "place_id": "ChIJdYOR03fw2EcRnR6g9MYjYhk",
    "formatted_address": "Wheatley Ave, Braintree CM7 3DP, UK"
  },
  "CM23 5JE": {
    "status": "OK",
    "lat": 51.86892659999999,
    "lng": 0.1737899,
    "place_id": "ChIJX7lE7EOF2EcRIxuGQ7bcZGI",
    "formatted_address": "Wayletts Dr, Bishop's Stortford CM23 5JE, UK"
  },
  "CM23 3EJ": {
    "status": "OK",
    "lat": 51.8537404,
    "lng": 0.1614844,
    "place_id": "ChIJa6TkljSF2EcR9SCcRcuHZoU",
    "formatted_address": "Bishop's Ave, Bishop's Stortford CM23 3EJ, UK"
  },
  "CM77 8FN": {
    "status": "OK",
    "lat": 51.8502829,
    "lng": 0.5624078,
    "place_id": "ChIJ8eA3Q_3v2EcRhZnDuO3d6bA",
    "formatted_address": "Turner Cl, Black Notley, Braintree CM77 8FN, UK"
  },
  "CM7 9JY": {
    "status": "OK",
    "lat": 51.8841358,
    "lng": 0.5618482,
    "place_id": "ChIJ02yqyXrw2EcR0pJGcoEHKPo",
    "formatted_address": "Beaufort Gardens, Braintree CM7 9JY, UK"
  },
  "CM22 6DJ": {
    "status": "OK",
    "lat": 51.9208134,
    "lng": 0.2451136,
    "place_id": "ChIJwXaG-NuO2EcRDeVzFsINXYw",
    "formatted_address": "Elsenham, Bishop's Stortford CM22 6DJ, UK"
  },
  "CM6 2SL": {
    "status": "OK",
    "lat": 51.8765898,
    "lng": 0.3607831,
    "place_id": "ChIJJd729T6N2EcRgUXmpuB8M30",
    "formatted_address": "Coppice Cl, Great Dunmow, Dunmow CM6 2SL, UK"
  },
  "CM19 5HU": {
    "status": "OK",
    "lat": 51.7663412,
    "lng": 0.0387678,
    "place_id": "ChIJlbxj9Hie2EcRKR0_FngdKVM",
    "formatted_address": "Roydon, Harlow CM19 5HU, UK"
  },
  "CM8 1QQ": {
    "status": "OK",
    "lat": 51.78996120000001,
    "lng": 0.6378328,
    "place_id": "ChIJT7M71Ubk2EcRo1u6YCWao3k",
    "formatted_address": "Lifchild Cl, Witham CM8 1QQ, UK"
  },
  "CM77 6DP": {
    "status": "OK",
    "lat": 51.8767137,
    "lng": 0.5115315,
    "place_id": "ChIJhUPtkLnx2EcRNWgrhyfbHhM",
    "formatted_address": "The Paddocks, Rayne, Braintree CM77 6DP, UK"
  },
  "CM8 2ST": {
    "status": "OK",
    "lat": 51.8101652,
    "lng": 0.6432057,
    "place_id": "ChIJMeWjO_Xk2EcRTjp0MezjHhw",
    "formatted_address": "Walnut Dr, Witham CM8 2ST, UK"
  },
  "CM6 3NH": {
    "status": "OK",
    "lat": 51.85918909999999,
    "lng": 0.4633672,
    "place_id": "ChIJ6VCfCQ_y2EcRyExS57rDV4c",
    "formatted_address": "Bannister Green, Felsted, Dunmow CM6 3NH, UK"
  },
  "CM23 3PW": {
    "status": "OK",
    "lat": 51.859196,
    "lng": 0.1552687,
    "place_id": "ChIJjy9D2zGF2EcRhyEhyyMOR8o",
    "formatted_address": "Norfolk Way, Bishop's Stortford CM23 3PW, UK"
  },
  "CM22 7NP": {
    "status": "OK",
    "lat": 51.8043557,
    "lng": 0.1827938,
    "place_id": "ChIJO2py9Hua2EcRYQb6RJeRGnE",
    "formatted_address": "High Pastures, Sheering, Bishop's Stortford CM22 7NP, UK"
  },
  "CB11 3BQ": {
    "status": "OK",
    "lat": 51.9762905,
    "lng": 0.2141049,
    "place_id": "ChIJu6hpJ4uI2EcRP7DXh7jM_rw",
    "formatted_address": "Bowker Cl, Newport, Saffron Walden CB11 3BQ, UK"
  },
  "CM7 1AT": {
    "status": "OK",
    "lat": 51.8726624,
    "lng": 0.5601208,
    "place_id": "ChIJ2TIoNm3w2EcRrULYAS7AvZI",
    "formatted_address": "Skitts Hill, Braintree CM7 1AT, UK"
  },
  "CM22 6HT": {
    "status": "OK",
    "lat": 51.9285371,
    "lng": 0.2013679,
    "place_id": "ChIJ-xpRuFGP2EcRs15iQRuZVUk",
    "formatted_address": "Ugley, Bishop's Stortford CM22 6HT, UK"
  },
  "CM22 6TJ": {
    "status": "OK",
    "lat": 51.86748979999999,
    "lng": 0.2614421,
    "place_id": "ChIJdSaZ-z2O2EcROlnuVnHsow0",
    "formatted_address": "The Pastures, Takeley, Bishop's Stortford CM22 6TJ, UK"
  },
  "SG10 6HL": {
    "status": "OK",
    "lat": 51.8659337,
    "lng": 0.07308819999999999,
    "place_id": "ChIJ-SA8DEeD2EcR7RDJI2Nj_A4",
    "formatted_address": "Old Lordship Farm Cottages, Much Hadham SG10 6HL, UK"
  },
  "CM24 8AX": {
    "status": "OK",
    "lat": 51.90145529999999,
    "lng": 0.1973396,
    "place_id": "ChIJu0fgkXuP2EcRmN3zAMDQBu8",
    "formatted_address": "Sunnyside, Stansted Mountfitchet, Stansted CM24 8AX, UK"
  },
  "CM24 8US": {
    "status": "OK",
    "lat": 51.8930605,
    "lng": 0.1932675,
    "place_id": "ChIJzWaLTICP2EcRIdkGnY95r_g",
    "formatted_address": "Bentley Dr, Stansted Mountfitchet, Stansted CM24 8US, UK"
  },
  "CM7 4TW": {
    "status": "OK",
    "lat": 51.9532092,
    "lng": 0.4186998,
    "place_id": "ChIJuUSRCpL02EcRFbZULNpdOCo",
    "formatted_address": "Gridiron Villas, Little Bardfield, Braintree CM7 4TW, UK"
  },
  "CM22 6RJ": {
    "status": "OK",
    "lat": 51.8720491,
    "lng": 0.2637774,
    "place_id": "ChIJQV4DPxWO2EcRalxpaJRiu5Y",
    "formatted_address": "Garnetts, Takeley, Bishop's Stortford CM22 6RJ, UK"
  },
  "CM77 8DG": {
    "status": "OK",
    "lat": 51.8577708,
    "lng": 0.6018728,
    "place_id": "ChIJPcOKPcn62EcRhP-wP-oFS4o",
    "formatted_address": "The St, Cressing, Braintree CM77 8DG, UK"
  },
  "CB10 2TP": {
    "status": "OK",
    "lat": 52.0193102,
    "lng": 0.2628109,
    "place_id": "ChIJLaMAuN-J2EcRmJaJWCFxaXk",
    "formatted_address": "Saffron Walden CB10 2TP, UK"
  },
  "CM6 1ST": {
    "status": "OK",
    "lat": 51.8674304,
    "lng": 0.3075591,
    "place_id": "ChIJ0eF2hOyN2EcRD1AdWiGPdYY",
    "formatted_address": "Mill Ct, Little Canfield, Dunmow CM6 1ST, UK"
  },
  "CM23 3QJ": {
    "status": "OK",
    "lat": 51.8653292,
    "lng": 0.1508267,
    "place_id": "ChIJQckVsyWF2EcRAeYBfjngUAE",
    "formatted_address": "Scott Rd, Bishop's Stortford CM23 3QJ, UK"
  },
  "CB10 2DG": {
    "status": "OK",
    "lat": 52.0279564,
    "lng": 0.2480135,
    "place_id": "ChIJ33kmtnti2EcRjH8a14ZBsIc",
    "formatted_address": "Wynyard Rd, Saffron Walden CB10 2DG, UK"
  },
  "CM6 3GH": {
    "status": "OK",
    "lat": 51.8605988,
    "lng": 0.4135974,
    "place_id": "ChIJW3M_Q5ry2EcRkEW_R7caygM",
    "formatted_address": "Tomlinson Rd, Little Dunmow, Dunmow CM6 3GH, UK"
  },
  "CM22 7AH": {
    "status": "OK",
    "lat": 51.8085827,
    "lng": 0.2116345,
    "place_id": "ChIJ8fCxkoqQ2EcRkmG4vIkXYkQ",
    "formatted_address": "Ardley Cres, Hatfield Heath, Bishop's Stortford CM22 7AH, UK"
  },
  "CM22 6NT": {
    "status": "OK",
    "lat": 51.8698803,
    "lng": 0.2792266,
    "place_id": "ChIJRRobaQyO2EcRio1Ux3oY4cM",
    "formatted_address": "Takeley, Bishop's Stortford CM22 6NT, UK"
  },
  "IG10 3BX": {
    "status": "OK",
    "lat": 51.6362884,
    "lng": 0.06009830000000001,
    "place_id": "ChIJg59rtAih2EcRqONIt9Qj0gw",
    "formatted_address": "Southern Dr, Loughton IG10 3BX, UK"
  },
  "CM17 9QH": {
    "status": "OK",
    "lat": 51.761423,
    "lng": 0.1374213,
    "place_id": "ChIJ_yzcQHmZ2EcRARoWBhMsMtc",
    "formatted_address": "Burley Hill, Harlow CM17 9QH, UK"
  },
  "CM17 9PZ": {
    "status": "OK",
    "lat": 51.7670799,
    "lng": 0.1462686,
    "place_id": "ChIJUSKpkICZ2EcRz7b6mlEM-Sw",
    "formatted_address": "Denby Grange, Harlow CM17 9PZ, UK"
  },
  "CM9 4PT": {
    "status": "OK",
    "lat": 51.7410481,
    "lng": 0.6787015,
    "place_id": "ChIJVY7ZYTfh2EcRMoUdbR_6rvo",
    "formatted_address": "Abbotsmead, Heybridge, Maldon CM9 4PT, UK"
  },
  "CM18 7JT": {
    "status": "OK",
    "lat": 51.7515225,
    "lng": 0.1010082,
    "place_id": "ChIJVacyUUmZ2EcR8JGb2tvW83E",
    "formatted_address": "Woodhill, Harlow CM18 7JT, UK"
  },
  "CM15 9NE": {
    "status": "OK",
    "lat": 51.63581509999999,
    "lng": 0.286749,
    "place_id": "ChIJ7Zj3f4G-2EcRi3ou5WiLrzo",
    "formatted_address": "Larchwood Gardens, Pilgrims Hatch, Brentwood CM15 9NE, UK"
  },
  "CB7 5EP": {
    "status": "OK",
    "lat": 52.3487518,
    "lng": 0.3117578,
    "place_id": "ChIJBQQCrkdr2EcRxIVdHxROLmk",
    "formatted_address": "The Cotes, Soham, ELY CB7 5EP, UK"
  },
  "EN7 5BT": {
    "status": "OK",
    "lat": 51.6996273,
    "lng": -0.04973,
    "place_id": "ChIJk3-Le8shdkgR3CopMgfUMUE",
    "formatted_address": "Gyfford Walk, Cheshunt, Waltham Cross EN7 5BT, UK"
  },
  "CB7 5ES": {
    "status": "OK",
    "lat": 52.34228659999999,
    "lng": 0.3337068,
    "place_id": "ChIJo2BkfyFr2EcRsTGNOD7sw2U",
    "formatted_address": "Martin Cl, Soham, ELY CB7 5ES, UK"
  },
  "CO4 9RX": {
    "status": "OK",
    "lat": 51.9069289,
    "lng": 0.9179927999999999,
    "place_id": "ChIJWyZ4B7QF2UcRCbg-aUriNok",
    "formatted_address": "Harebell Cl, Highwoods, Colchester CO4 9RX, UK"
  },
  "CM2 0PG": {
    "status": "OK",
    "lat": 51.7319124,
    "lng": 0.466765,
    "place_id": "ChIJN7ehJNHr2EcRXABBMlIyJn4",
    "formatted_address": "Chelmsford CM2 0PG, UK"
  },
  "SG18 0EG": {
    "status": "OK",
    "lat": 52.0952365,
    "lng": -0.2649957,
    "place_id": "ChIJv5Z-9xfMd0gRx0-dVM7jD0s",
    "formatted_address": "Beech Ave, Biggleswade SG18 0EG, UK"
  },
  "WD24 7EA": {
    "status": "OK",
    "lat": 51.673968,
    "lng": -0.3880348,
    "place_id": "ChIJFQRks69qdkgRDHt9kyRPGyA",
    "formatted_address": "Westfield Ave, Watford WD24 7EA, UK"
  },
  "SS4 1GX": {
    "status": "OK",
    "lat": 51.5828974,
    "lng": 0.6897268,
    "place_id": "ChIJaf3-HznZ2EcRhz4tL4Qts6Y",
    "formatted_address": "Rochford SS4 1GX, UK"
  },
  "IP14 2NP": {
    "status": "OK",
    "lat": 52.1634454,
    "lng": 0.9671607999999999,
    "place_id": "ChIJke_eVIqv2UcRDcHZCcr09OE",
    "formatted_address": "Combs Grn, Combs, Stowmarket IP14 2NP, UK"
  },
  "CM19 5NF": {
    "status": "OK",
    "lat": 51.7557598,
    "lng": 0.0725444,
    "place_id": "ChIJzYLQFL2e2EcR7h8xWw6Jj-g",
    "formatted_address": "Tithelands, Harlow CM19 5NF, UK"
  },
  "CM3 1SH": {
    "status": "OK",
    "lat": 51.8327489,
    "lng": 0.5093451999999999,
    "place_id": "ChIJkxRp8Dju2EcREp_jrUPCni4",
    "formatted_address": "Shimbrooks, Great Leighs, Chelmsford CM3 1SH, UK"
  },
  "CM17 0DX": {
    "status": "OK",
    "lat": 51.7845658,
    "lng": 0.141589,
    "place_id": "ChIJfVbKTsub2EcRwQl2r04OlKg",
    "formatted_address": "Watlington Rd, Harlow CM17 0DX, UK"
  },
  "SS4 1JD": {
    "status": "OK",
    "lat": 51.56931489999999,
    "lng": 0.7066323999999999,
    "place_id": "ChIJvRl9SBzZ2EcRU0_Hthi63AY",
    "formatted_address": "Southend Rd, Rochford SS4 1JD, UK"
  },
  "IG8 9NE": {
    "status": "OK",
    "lat": 51.6010693,
    "lng": 0.0016095,
    "place_id": "ChIJn7II7aqg2EcRH2_bDGcR1lQ",
    "formatted_address": "Sky Peals Rd, Woodford Green IG8 9NE, UK"
  },
  "CM18 6XP": {
    "status": "OK",
    "lat": 51.7586662,
    "lng": 0.0902111,
    "place_id": "ChIJ4UFrwK2e2EcR0Q6XycujYxI",
    "formatted_address": "Kingsland, Harlow CM18 6XP, UK"
  },
  "E10 5QZ": {
    "status": "OK",
    "lat": 51.56045049999999,
    "lng": -0.0084703,
    "place_id": "ChIJI-aeqIMddkgRrKlA9naBk4I",
    "formatted_address": "Sidmouth Rd, London E10 5QZ, UK"
  },
  "CO6 3JB": {
    "status": "OK",
    "lat": 51.9130225,
    "lng": 0.8536455,
    "place_id": "ChIJQ-5gyPID2UcRCCfo3Jy0pxM",
    "formatted_address": "Chapel Rd, West Bergholt, Colchester CO6 3JB, UK"
  }
}